{
"type": "FeatureCollection",
"crs": { "type": "name", "properties": { "name": "urn:ogc:def:crs:EPSG::4269" } },
                                                                                
"features": [
{ "type": "Feature", "properties": { "Status": "M", "Score": 100, "Match_type": "A", "Side": "L", "Match_addr": "1000 N BECKLEY STATION RD", "ARC_Street": "1000 N. Beckley Station Road", "Street": "1000 N. Beckley Station Road" }, "geometry": { "type": "Point", "coordinates": [ -85.475607896947849, 38.251089640316934 ] } },
{ "type": "Feature", "properties": { "Status": "M", "Score": 100, "Match_type": "A", "Side": "L", "Match_addr": "1010 NEIGHBORHOOD PL", "ARC_Street": "1010 Neighborhood Place", "Street": "1010 Neighborhood Place" }, "geometry": { "type": "Point", "coordinates": [ -85.749910436494361, 38.116342159677856 ] } },
{ "type": "Feature", "properties": { "Status": "M", "Score": 100, "Match_type": "A", "Side": "R", "Match_addr": "10104 MITCHELL HILL RD", "ARC_Street": "10104 Mitchell Hill Road", "Street": "10104 Mitchell Hill Road" }, "geometry": { "type": "Point", "coordinates": [ -85.760403484981509, 38.104266378100476 ] } },
{ "type": "Feature", "properties": { "Status": "M", "Score": 100, "Match_type": "A", "Side": "R", "Match_addr": "10129 RIMFIRE RD", "ARC_Street": "10129 Rimfire Road", "Street": "10129 Rimfire Road" }, "geometry": { "type": "Point", "coordinates": [ -85.582154088255493, 38.160811147345498 ] } },
{ "type": "Feature", "properties": { "Status": "M", "Score": 100, "Match_type": "A", "Side": "L", "Match_addr": "10315 DEERING RD", "ARC_Street": "10315 Deering Road", "Street": "10315 Deering Road" }, "geometry": { "type": "Point", "coordinates": [ -85.861295445943881, 38.104686652113571 ] } },
{ "type": "Feature", "properties": { "Status": "M", "Score": 100, "Match_type": "A", "Side": "L", "Match_addr": "1051 HESS LN", "ARC_Street": "1051 Hess Lane", "Street": "1051 Hess Lane" }, "geometry": { "type": "Point", "coordinates": [ -85.729498280100472, 38.208104557688273 ] } },
{ "type": "Feature", "properties": { "Status": "M", "Score": 100, "Match_type": "A", "Side": "R", "Match_addr": "10512 NATIONAL TPKE", "ARC_Street": "10512 National Turnpike", "Street": "10512 National Turnpike" }, "geometry": { "type": "Point", "coordinates": [ -85.738244607865624, 38.097178060721944 ] } },
{ "type": "Feature", "properties": { "Status": "M", "Score": 100, "Match_type": "A", "Side": "R", "Match_addr": "1121 W BROADWAY", "ARC_Street": "1121 West Broadway", "Street": "1121 West Broadway" }, "geometry": { "type": "Point", "coordinates": [ -85.770301770475157, 38.247432870282921 ] } },
{ "type": "Feature", "properties": { "Status": "M", "Score": 100, "Match_type": "A", "Side": "R", "Match_addr": "1130 W CHESTNUT ST", "ARC_Street": "1130 West Chestnut Street", "Street": "1130 West Chestnut Street" }, "geometry": { "type": "Point", "coordinates": [ -85.77032065975402, 38.250261211099257 ] } },
{ "type": "Feature", "properties": { "Status": "U", "Score": 0, "Match_type": "A", "Side": null, "Match_addr": null, "ARC_Street": "11530 Bluegrass Parkway", "Street": "11530 Bluegrass Parkway" }, "geometry": { "type": "Point", "coordinates": [ -1.7976931348623157e+308, -1.7976931348623157e+308 ] } },
{ "type": "Feature", "properties": { "Status": "M", "Score": 100, "Match_type": "A", "Side": "R", "Match_addr": "120 SACRED HEART LN", "ARC_Street": "120 Sacred Heart Lane", "Street": "120 Sacred Heart Lane" }, "geometry": { "type": "Point", "coordinates": [ -85.677942634712281, 38.25251182150663 ] } },
{ "type": "Feature", "properties": { "Status": "M", "Score": 100, "Match_type": "A", "Side": "R", "Match_addr": "12408 OLD SHELBYVILLE RD", "ARC_Street": "12408 Old Shelbyville Road", "Street": "12408 Old Shelbyville Road" }, "geometry": { "type": "Point", "coordinates": [ -85.527107277236212, 38.243997969766383 ] } },
{ "type": "Feature", "properties": { "Status": "M", "Score": 100, "Match_type": "A", "Side": "L", "Match_addr": "13101 EASTPOINT PARK BLVD", "ARC_Street": "13101 Eastpoint Park Blvd", "Street": "13101 Eastpoint Park Blvd" }, "geometry": { "type": "Point", "coordinates": [ -85.514638377809888, 38.278908844712987 ] } },
{ "type": "Feature", "properties": { "Status": "M", "Score": 100, "Match_type": "A", "Side": "L", "Match_addr": "1351 PAYNE ST", "ARC_Street": "1351 Payne St.", "Street": "1351 Payne St." }, "geometry": { "type": "Point", "coordinates": [ -85.723336925278318, 38.24926280635475 ] } },
{ "type": "Feature", "properties": { "Status": "M", "Score": 100, "Match_type": "A", "Side": "L", "Match_addr": "13905 SHELBYVILLE RD", "ARC_Street": "13905 Shelbyville Road", "Street": "13905 Shelbyville Road" }, "geometry": { "type": "Point", "coordinates": [ -85.491526497130394, 38.239773355694467 ] } },
{ "type": "Feature", "properties": { "Status": "M", "Score": 100, "Match_type": "A", "Side": "L", "Match_addr": "1401 S 41ST ST", "ARC_Street": "1401 South 41st Street", "Street": "1401 South 41st Street" }, "geometry": { "type": "Point", "coordinates": [ -85.821019375308765, 38.237868902912339 ] } },
{ "type": "Feature", "properties": { "Status": "M", "Score": 100, "Match_type": "A", "Side": "L", "Match_addr": "1406 GARVEY DR", "ARC_Street": "1406 Garvey Drive", "Street": "1406 Garvey Drive" }, "geometry": { "type": "Point", "coordinates": [ -85.805788337495926, 38.183782759103167 ] } },
{ "type": "Feature", "properties": { "Status": "M", "Score": 100, "Match_type": "A", "Side": "L", "Match_addr": "14417 AIKEN RD", "ARC_Street": "14417 Aiken Road", "Street": "14417 Aiken Road" }, "geometry": { "type": "Point", "coordinates": [ -85.485549186100286, 38.268707519106158 ] } },
{ "type": "Feature", "properties": { "Status": "M", "Score": 100, "Match_type": "A", "Side": "L", "Match_addr": "1501 RANGELAND RD", "ARC_Street": "1501 Rangeland Road", "Street": "1501 Rangeland Road" }, "geometry": { "type": "Point", "coordinates": [ -85.681613753586078, 38.167349256517412 ] } },
{ "type": "Feature", "properties": { "Status": "M", "Score": 100, "Match_type": "A", "Side": "L", "Match_addr": "1520 GAGEL AVE", "ARC_Street": "1520 Gagel Avenue", "Street": "1520 Gagel Avenue" }, "geometry": { "type": "Point", "coordinates": [ -85.813533239519415, 38.173091771422094 ] } },
{ "type": "Feature", "properties": { "Status": "M", "Score": 100, "Match_type": "A", "Side": "R", "Match_addr": "1601 ROOSEVELT AVE", "ARC_Street": "1601 Roosevelt Avenue", "Street": "1601 Roosevelt Avenue" }, "geometry": { "type": "Point", "coordinates": [ -85.582001337440033, 38.268980320304195 ] } },
{ "type": "Feature", "properties": { "Status": "M", "Score": 100, "Match_type": "A", "Side": "L", "Match_addr": "1610 BICKNELL AVE", "ARC_Street": "1610 Bicknell Avenue", "Street": "1610 Bicknell Avenue" }, "geometry": { "type": "Point", "coordinates": [ -85.790125548444905, 38.183626655179296 ] } },
{ "type": "Feature", "properties": { "Status": "M", "Score": 100, "Match_type": "A", "Side": "L", "Match_addr": "1627 LUCIA AVE", "ARC_Street": "1627 Lucia Avenue", "Street": "1627 Lucia Avenue" }, "geometry": { "type": "Point", "coordinates": [ -85.719739787997298, 38.236397455247641 ] } },
{ "type": "Feature", "properties": { "Status": "M", "Score": 100, "Match_type": "A", "Side": "L", "Match_addr": "1634 HUNTOON AVE", "ARC_Street": "1634 Huntoon Avenue", "Street": "1634 Huntoon Avenue" }, "geometry": { "type": "Point", "coordinates": [ -85.791120955866745, 38.172390687216648 ] } },
{ "type": "Feature", "properties": { "Status": "M", "Score": 100, "Match_type": "A", "Side": "R", "Match_addr": "1700 NORRIS PL", "ARC_Street": "1700 Norris Place", "Street": "1700 Norris Place" }, "geometry": { "type": "Point", "coordinates": [ -85.706835843398324, 38.225050658340251 ] } },
{ "type": "Feature", "properties": { "Status": "M", "Score": 100, "Match_type": "A", "Side": "R", "Match_addr": "1900 S 7TH ST", "ARC_Street": "1900 South Seventh Street", "Street": "1900 South Seventh Street" }, "geometry": { "type": "Point", "coordinates": [ -85.776059278424952, 38.22100885825256 ] } },
{ "type": "Feature", "properties": { "Status": "M", "Score": 100, "Match_type": "A", "Side": "R", "Match_addr": "1906 GOLDSMITH LN", "ARC_Street": "1906 Goldsmith Lane", "Street": "1906 Goldsmith Lane" }, "geometry": { "type": "Point", "coordinates": [ -85.683898669956136, 38.200550448105957 ] } },
{ "type": "Feature", "properties": { "Status": "M", "Score": 100, "Match_type": "A", "Side": "R", "Match_addr": "1909 AUBURN DR", "ARC_Street": "1909 Auburn Drive", "Street": "1909 Auburn Drive" }, "geometry": { "type": "Point", "coordinates": [ -85.818524596391626, 38.186647136979616 ] } },
{ "type": "Feature", "properties": { "Status": "M", "Score": 100, "Match_type": "A", "Side": "R", "Match_addr": "1913 HERR LN", "ARC_Street": "1913 Herr Lane", "Street": "1913 Herr Lane" }, "geometry": { "type": "Point", "coordinates": [ -85.623832063341638, 38.278975873018965 ] } },
{ "type": "Feature", "properties": { "Status": "M", "Score": 100, "Match_type": "A", "Side": "R", "Match_addr": "201 N 25TH ST", "ARC_Street": "201 North 25th Street", "Street": "201 North 25th Street" }, "geometry": { "type": "Point", "coordinates": [ -85.790970420479482, 38.261832290942891 ] } },
{ "type": "Feature", "properties": { "Status": "M", "Score": 100, "Match_type": "A", "Side": "L", "Match_addr": "2010 RUDY LN", "ARC_Street": "2010 Rudy Lane", "Street": "2010 Rudy Lane" }, "geometry": { "type": "Point", "coordinates": [ -85.641995720274849, 38.283009193753401 ] } },
{ "type": "Feature", "properties": { "Status": "M", "Score": 100, "Match_type": "A", "Side": "R", "Match_addr": "2013 HERR LN", "ARC_Street": "2013 Herr Lane", "Street": "2013 Herr Lane" }, "geometry": { "type": "Point", "coordinates": [ -85.624801651944495, 38.280102194940355 ] } },
{ "type": "Feature", "properties": { "Status": "M", "Score": 100, "Match_type": "A", "Side": "L", "Match_addr": "2020 GARRS LN", "ARC_Street": "2020 Garrs Lane", "Street": "2020 Garrs Lane" }, "geometry": { "type": "Point", "coordinates": [ -85.816491069281881, 38.189746718128674 ] } },
{ "type": "Feature", "properties": { "Status": "M", "Score": 100, "Match_type": "A", "Side": "R", "Match_addr": "210 OXFORDSHIRE LN", "ARC_Street": "210 Oxfordshire Lane", "Street": "210 Oxfordshire Lane" }, "geometry": { "type": "Point", "coordinates": [ -85.591082969092497, 38.24620372129624 ] } },
{ "type": "Feature", "properties": { "Status": "M", "Score": 100, "Match_type": "A", "Side": "R", "Match_addr": "2115 GARRS LN", "ARC_Street": "2115 Garrs Lane", "Street": "2115 Garrs Lane" }, "geometry": { "type": "Point", "coordinates": [ -85.818982104097529, 38.190027253709047 ] } },
{ "type": "Feature", "properties": { "Status": "M", "Score": 100, "Match_type": "A", "Side": "L", "Match_addr": "2131 LANCASHIRE AVE", "ARC_Street": "2131 Lancashire Avenue", "Street": "2131 Lancashire Avenue" }, "geometry": { "type": "Point", "coordinates": [ -85.677659591321856, 38.214997058332642 ] } },
{ "type": "Feature", "properties": { "Status": "M", "Score": 100, "Match_type": "A", "Side": "R", "Match_addr": "2140 TYLER LN", "ARC_Street": "2140 Tyler Lane", "Street": "2140 Tyler Lane" }, "geometry": { "type": "Point", "coordinates": [ -85.678979352038766, 38.216888000610595 ] } },
{ "type": "Feature", "properties": { "Status": "M", "Score": 100, "Match_type": "A", "Side": "L", "Match_addr": "2210 UPPER HUNTERS TRCE", "ARC_Street": "2210 Upper Hunters Trace", "Street": "2210 Upper Hunters Trace" }, "geometry": { "type": "Point", "coordinates": [ -85.838296007173426, 38.167168846217237 ] } },
{ "type": "Feature", "properties": { "Status": "T", "Score": 100, "Match_type": "A", "Side": "R", "Match_addr": "2220 DIXIE HWY", "ARC_Street": "2220 Dixie Highway", "Street": "2220 Dixie Highway" }, "geometry": { "type": "Point", "coordinates": [ -85.794468117633414, 38.218650366019403 ] } },
{ "type": "Feature", "properties": { "Status": "M", "Score": 75, "Match_type": "A", "Side": "L", "Match_addr": "223 E MAGNOLIA AVE", "ARC_Street": "223 East Magnolia Street", "Street": "223 East Magnolia Street" }, "geometry": { "type": "Point", "coordinates": [ -85.754228048594996, 38.228469738334127 ] } },
{ "type": "Feature", "properties": { "Status": "M", "Score": 100, "Match_type": "A", "Side": "L", "Match_addr": "2301 CLARENDON AVE", "ARC_Street": "2301 Clarendon Avenue", "Street": "2301 Clarendon Avenue" }, "geometry": { "type": "Point", "coordinates": [ -85.670689053717865, 38.218146486110243 ] } },
{ "type": "Feature", "properties": { "Status": "U", "Score": 0, "Match_type": "A", "Side": null, "Match_addr": null, "ARC_Street": "2700 Browns Lane", "Street": "2700 Browns Lane" }, "geometry": { "type": "Point", "coordinates": [ -1.7976931348623157e+308, -1.7976931348623157e+308 ] } },
{ "type": "Feature", "properties": { "Status": "M", "Score": 100, "Match_type": "A", "Side": "R", "Match_addr": "2801 FORDHAVEN RD", "ARC_Street": "2801 Fordhaven Road", "Street": "2801 Fordhaven Road" }, "geometry": { "type": "Point", "coordinates": [ -85.814673178373312, 38.149453819812152 ] } },
{ "type": "Feature", "properties": { "Status": "M", "Score": 100, "Match_type": "A", "Side": "R", "Match_addr": "2817 W KENTUCKY ST", "ARC_Street": "2817 West Kentucky Street", "Street": "2817 West Kentucky Street" }, "geometry": { "type": "Point", "coordinates": [ -85.799620519790608, 38.243686910202314 ] } },
{ "type": "Feature", "properties": { "Status": "M", "Score": 100, "Match_type": "A", "Side": "L", "Match_addr": "2823 FRANKFORT AVE", "ARC_Street": "2823 Frankfort Avenue", "Street": "2823 Frankfort Avenue" }, "geometry": { "type": "Point", "coordinates": [ -85.689249314328492, 38.254775827011997 ] } },
{ "type": "Feature", "properties": { "Status": "T", "Score": 77, "Match_type": "A", "Side": "L", "Match_addr": "301 E SOUTHLAND BLVD", "ARC_Street": "301 Southland Boulevard", "Street": "301 Southland Boulevard" }, "geometry": { "type": "Point", "coordinates": [ -85.758088196009965, 38.173803314382496 ] } },
{ "type": "Feature", "properties": { "Status": "M", "Score": 100, "Match_type": "A", "Side": "R", "Match_addr": "3024 DIXIE HWY", "ARC_Street": "3024 Dixie Highway", "Street": "3024 Dixie Highway" }, "geometry": { "type": "Point", "coordinates": [ -85.799328560656932, 38.206567615793631 ] } },
{ "type": "Feature", "properties": { "Status": "M", "Score": 100, "Match_type": "A", "Side": "R", "Match_addr": "3046 HUNSINGER LN", "ARC_Street": "3046 Hunsinger Lane", "Street": "3046 Hunsinger Lane" }, "geometry": { "type": "Point", "coordinates": [ -85.624887562529693, 38.218090525187563 ] } },
{ "type": "Feature", "properties": { "Status": "U", "Score": 0, "Match_type": "A", "Side": null, "Match_addr": null, "ARC_Street": "306 Roy Wilkins Avenue", "Street": "306 Roy Wilkins Avenue" }, "geometry": { "type": "Point", "coordinates": [ -1.7976931348623157e+308, -1.7976931348623157e+308 ] } },
{ "type": "Feature", "properties": { "Status": "M", "Score": 75, "Match_type": "A", "Side": "R", "Match_addr": "3110 ROCK CREEK DR", "ARC_Street": "3110 Rock Creek Road", "Street": "3110 Rock Creek Road" }, "geometry": { "type": "Point", "coordinates": [ -85.670343087146023, 38.242354807954996 ] } },
{ "type": "Feature", "properties": { "Status": "M", "Score": 100, "Match_type": "A", "Side": "R", "Match_addr": "3149 COMMERCE CENTER PL", "ARC_Street": "3149 Commerce Center Place", "Street": "3149 Commerce Center Place" }, "geometry": { "type": "Point", "coordinates": [ -85.811343719425338, 38.221713510273219 ] } },
{ "type": "Feature", "properties": { "Status": "M", "Score": 100, "Match_type": "A", "Side": "L", "Match_addr": "3201 E INDIAN TRL", "ARC_Street": "3201 East Indian Trail", "Street": "3201 East Indian Trail" }, "geometry": { "type": "Point", "coordinates": [ -85.706488311683927, 38.168820250647855 ] } },
{ "type": "Feature", "properties": { "Status": "M", "Score": 100, "Match_type": "A", "Side": "R", "Match_addr": "3300 COLLEGE DR", "ARC_Street": "3300 College Drive", "Street": "3300 College Drive" }, "geometry": { "type": "Point", "coordinates": [ -85.570492127902639, 38.196974640023257 ] } },
{ "type": "Feature", "properties": { "Status": "M", "Score": 100, "Match_type": "A", "Side": "L", "Match_addr": "3400 VERMONT AVE", "ARC_Street": "3400 Vermont Avenue", "Street": "3400 Vermont Avenue" }, "geometry": { "type": "Point", "coordinates": [ -85.807403197596898, 38.255504346492501 ] } },
{ "type": "Feature", "properties": { "Status": "M", "Score": 100, "Match_type": "A", "Side": "R", "Match_addr": "3520 GOLDSMITH LN", "ARC_Street": "3520 Goldsmith Lane", "Street": "3520 Goldsmith Lane" }, "geometry": { "type": "Point", "coordinates": [ -85.652994239433099, 38.208733581694332 ] } },
{ "type": "Feature", "properties": { "Status": "M", "Score": 100, "Match_type": "A", "Side": "L", "Match_addr": "3600 BOHNE AVE", "ARC_Street": "3600 Bohne Ave.", "Street": "3600 Bohne Ave." }, "geometry": { "type": "Point", "coordinates": [ -85.816592985038596, 38.22871359594825 ] } },
{ "type": "Feature", "properties": { "Status": "M", "Score": 100, "Match_type": "A", "Side": "R", "Match_addr": "3610 CEDARWOOD WAY", "ARC_Street": "3610 Cedarwood Way", "Street": "3610 Cedarwood Way" }, "geometry": { "type": "Point", "coordinates": [ -85.583451257593993, 38.191885639645363 ] } },
{ "type": "Feature", "properties": { "Status": "M", "Score": 100, "Match_type": "A", "Side": "R", "Match_addr": "3622 BROWNSBORO RD", "ARC_Street": "3622 Brownsboro Road", "Street": "3622 Brownsboro Road" }, "geometry": { "type": "Point", "coordinates": [ -85.668213127810816, 38.265148794491608 ] } },
{ "type": "Feature", "properties": { "Status": "M", "Score": 100, "Match_type": "A", "Side": "L", "Match_addr": "3800 GIBSON LN", "ARC_Street": "3800 Gibson Lane", "Street": "3800 Gibson Lane" }, "geometry": { "type": "Point", "coordinates": [ -85.818252516369625, 38.232376715844168 ] } },
{ "type": "Feature", "properties": { "Status": "M", "Score": 100, "Match_type": "A", "Side": "L", "Match_addr": "3807 KLONDIKE LN", "ARC_Street": "3807 Klondike Lane", "Street": "3807 Klondike Lane" }, "geometry": { "type": "Point", "coordinates": [ -85.637925355441212, 38.208336078074069 ] } },
{ "type": "Feature", "properties": { "Status": "M", "Score": 100, "Match_type": "A", "Side": "L", "Match_addr": "3815 DIXIE HWY", "ARC_Street": "3815 Dixie Highway", "Street": "3815 Dixie Highway" }, "geometry": { "type": "Point", "coordinates": [ -85.805223138167378, 38.196216818679829 ] } },
{ "type": "Feature", "properties": { "Status": "M", "Score": 100, "Match_type": "A", "Side": "L", "Match_addr": "3830 RUCKRIEGEL PKWY", "ARC_Street": "3830 Ruckriegel Parkway", "Street": "3830 Ruckriegel Parkway" }, "geometry": { "type": "Point", "coordinates": [ -85.568718197371425, 38.190161557264673 ] } },
{ "type": "Feature", "properties": { "Status": "M", "Score": 83, "Match_type": "A", "Side": "R", "Match_addr": "3900 BRECKENRIDGE LN", "ARC_Street": "3900 Breckinridge Lane", "Street": "3900 Breckinridge Lane" }, "geometry": { "type": "Point", "coordinates": [ -85.625757434203763, 38.191547896833356 ] } },
{ "type": "Feature", "properties": { "Status": "M", "Score": 100, "Match_type": "A", "Side": "L", "Match_addr": "3929 DIXIE HWY", "ARC_Street": "3929 Dixie Highway", "Street": "3929 Dixie Highway" }, "geometry": { "type": "Point", "coordinates": [ -85.806854605381261, 38.193789416416621 ] } },
{ "type": "Feature", "properties": { "Status": "M", "Score": 100, "Match_type": "A", "Side": "L", "Match_addr": "3951 CANE RUN RD", "ARC_Street": "3951 Cane Run Road", "Street": "3951 Cane Run Road" }, "geometry": { "type": "Point", "coordinates": [ -85.823483004079321, 38.210023701179011 ] } },
{ "type": "Feature", "properties": { "Status": "M", "Score": 100, "Match_type": "A", "Side": "R", "Match_addr": "4000 BARDSTOWN RD", "ARC_Street": "4000 Bardstown Road", "Street": "4000 Bardstown Road" }, "geometry": { "type": "Point", "coordinates": [ -85.648993385426536, 38.193066716011515 ] } },
{ "type": "Feature", "properties": { "Status": "M", "Score": 100, "Match_type": "A", "Side": "L", "Match_addr": "4005 ADDISON LN", "ARC_Street": "4005 Addison Lane", "Street": "4005 Addison Lane" }, "geometry": { "type": "Point", "coordinates": [ -85.82483908560107, 38.193335881228222 ] } },
{ "type": "Feature", "properties": { "Status": "M", "Score": 100, "Match_type": "A", "Side": "L", "Match_addr": "4015 SERENE WAY", "ARC_Street": "4015 Serene Way", "Street": "4015 Serene Way" }, "geometry": { "type": "Point", "coordinates": [ -85.68803212368681, 38.159890389261534 ] } },
{ "type": "Feature", "properties": { "Status": "M", "Score": 100, "Match_type": "A", "Side": "R", "Match_addr": "4016 TAYLOR BLVD", "ARC_Street": "4016 Taylor Boulevard", "Street": "4016 Taylor Boulevard" }, "geometry": { "type": "Point", "coordinates": [ -85.784098320989926, 38.185502982163712 ] } },
{ "type": "Feature", "properties": { "Status": "M", "Score": 100, "Match_type": "A", "Side": "L", "Match_addr": "4106 GREENWOOD AVE", "ARC_Street": "4106 Greenwood Avenue", "Street": "4106 Greenwood Avenue" }, "geometry": { "type": "Point", "coordinates": [ -85.820272756349539, 38.244050970839623 ] } },
{ "type": "Feature", "properties": { "Status": "M", "Score": 100, "Match_type": "A", "Side": "R", "Match_addr": "4141 W BROADWAY", "ARC_Street": "4141 W. Broadway", "Street": "4141 W. Broadway" }, "geometry": { "type": "Point", "coordinates": [ -85.822075800628056, 38.250420402830002 ] } },
{ "type": "Feature", "properties": { "Status": "M", "Score": 100, "Match_type": "A", "Side": "R", "Match_addr": "423 CHERRYWOOD RD", "ARC_Street": "423 Cherrywood Road", "Street": "423 Cherrywood Road" }, "geometry": { "type": "Point", "coordinates": [ -85.652898393211842, 38.262898374065628 ] } },
{ "type": "Feature", "properties": { "Status": "M", "Score": 100, "Match_type": "A", "Side": "R", "Match_addr": "4301 MURPHY LN", "ARC_Street": "4301 Murphy Lane", "Street": "4301 Murphy Lane" }, "geometry": { "type": "Point", "coordinates": [ -85.535801536639383, 38.306619212587293 ] } },
{ "type": "Feature", "properties": { "Status": "M", "Score": 100, "Match_type": "A", "Side": "R", "Match_addr": "432 E JEFFERSON ST", "ARC_Street": "432 East Jefferson Street", "Street": "432 East Jefferson Street" }, "geometry": { "type": "Point", "coordinates": [ -85.745196567696325, 38.252494316801005 ] } },
{ "type": "Feature", "properties": { "Status": "M", "Score": 100, "Match_type": "A", "Side": "L", "Match_addr": "440 ZORN AVE", "ARC_Street": "440 Zorn Avenue", "Street": "440 Zorn Avenue" }, "geometry": { "type": "Point", "coordinates": [ -85.689123179638727, 38.264577686399605 ] } },
{ "type": "Feature", "properties": { "Status": "M", "Score": 100, "Match_type": "A", "Side": "R", "Match_addr": "4408 LEEDS RD", "ARC_Street": "4408 Leeds Road", "Street": "4408 Leeds Road" }, "geometry": { "type": "Point", "coordinates": [ -85.830401740288153, 38.18090090700224 ] } },
{ "type": "Feature", "properties": { "Status": "M", "Score": 100, "Match_type": "A", "Side": "R", "Match_addr": "4601 VALLEY STATION RD", "ARC_Street": "4601 Valley Station Road", "Street": "4601 Valley Station Road" }, "geometry": { "type": "Point", "coordinates": [ -85.841595965094655, 38.107307273799677 ] } },
{ "type": "Feature", "properties": { "Status": "M", "Score": 100, "Match_type": "A", "Side": "R", "Match_addr": "4609 MELVIN DR", "ARC_Street": "4609 Melvin Drive", "Street": "4609 Melvin Drive" }, "geometry": { "type": "Point", "coordinates": [ -85.843739412218383, 38.182326300023647 ] } },
{ "type": "Feature", "properties": { "Status": "M", "Score": 100, "Match_type": "A", "Side": "R", "Match_addr": "4700 LOWE RD", "ARC_Street": "4700 Lowe Road", "Street": "4700 Lowe Road" }, "geometry": { "type": "Point", "coordinates": [ -85.609512761738983, 38.222654302005026 ] } },
{ "type": "Feature", "properties": { "Status": "U", "Score": 0, "Match_type": "A", "Side": null, "Match_addr": null, "ARC_Street": "4906 Mud Lane", "Street": "4906 Mud Lane" }, "geometry": { "type": "Point", "coordinates": [ -1.7976931348623157e+308, -1.7976931348623157e+308 ] } },
{ "type": "Feature", "properties": { "Status": "M", "Score": 100, "Match_type": "A", "Side": "R", "Match_addr": "5100 CAPEWOOD DR", "ARC_Street": "5100 Capewood Drive", "Street": "5100 Capewood Drive" }, "geometry": { "type": "Point", "coordinates": [ -85.663356198172949, 38.100223745984863 ] } },
{ "type": "Feature", "properties": { "Status": "M", "Score": 100, "Match_type": "A", "Side": "R", "Match_addr": "5114 SHEPHERDSVILLE RD", "ARC_Street": "5114 Shepherdsville Rd.", "Street": "5114 Shepherdsville Rd." }, "geometry": { "type": "Point", "coordinates": [ -85.659489177332148, 38.176508308729922 ] } },
{ "type": "Feature", "properties": { "Status": "M", "Score": 100, "Match_type": "A", "Side": "L", "Match_addr": "5118 EUCLID AVE", "ARC_Street": "5118 Euclid Avenue", "Street": "5118 Euclid Avenue" }, "geometry": { "type": "Point", "coordinates": [ -85.85883582235482, 38.119277720310492 ] } },
{ "type": "Feature", "properties": { "Status": "M", "Score": 75, "Match_type": "A", "Side": "L", "Match_addr": "5309 MITSCHER AVE", "ARC_Street": "5309 Mitscher", "Street": "5309 Mitscher" }, "geometry": { "type": "Point", "coordinates": [ -85.770591775592436, 38.171578381444306 ] } },
{ "type": "Feature", "properties": { "Status": "M", "Score": 100, "Match_type": "A", "Side": "L", "Match_addr": "5310 MERCURY DR", "ARC_Street": "5310 Mercury Drive", "Street": "5310 Mercury Drive" }, "geometry": { "type": "Point", "coordinates": [ -85.853674337510824, 38.158452193149969 ] } },
{ "type": "Feature", "properties": { "Status": "M", "Score": 100, "Match_type": "A", "Side": "R", "Match_addr": "546 S 1ST ST", "ARC_Street": "546 South First Street", "Street": "546 South First Street" }, "geometry": { "type": "Point", "coordinates": [ -85.752924480790284, 38.248710905072585 ] } },
{ "type": "Feature", "properties": { "Status": "M", "Score": 100, "Match_type": "A", "Side": "R", "Match_addr": "5650 SOUTHERN PKWY", "ARC_Street": "5650 Southern Parkway", "Street": "5650 Southern Parkway" }, "geometry": { "type": "Point", "coordinates": [ -85.778032134452928, 38.17226691164251 ] } },
{ "type": "Feature", "properties": { "Status": "M", "Score": 100, "Match_type": "A", "Side": "R", "Match_addr": "5700 CYNTHIA DR", "ARC_Street": "5700 Cynthia Drive", "Street": "5700 Cynthia Drive" }, "geometry": { "type": "Point", "coordinates": [ -85.575048144927791, 38.167551625688986 ] } },
{ "type": "Feature", "properties": { "Status": "M", "Score": 100, "Match_type": "A", "Side": "R", "Match_addr": "5804 SOUTHSIDE DR", "ARC_Street": "5804 Southside Drive", "Street": "5804 Southside Drive" }, "geometry": { "type": "Point", "coordinates": [ -85.764840091951442, 38.167008212227358 ] } },
{ "type": "Feature", "properties": { "Status": "M", "Score": 100, "Match_type": "A", "Side": "L", "Match_addr": "601 BROWNS LN", "ARC_Street": "601 Browns Lane", "Street": "601 Browns Lane" }, "geometry": { "type": "Point", "coordinates": [ -85.641747974953944, 38.245359440114555 ] } },
{ "type": "Feature", "properties": { "Status": "M", "Score": 100, "Match_type": "A", "Side": "R", "Match_addr": "630 FINZER ST", "ARC_Street": "630 Finzer Street", "Street": "630 Finzer Street" }, "geometry": { "type": "Point", "coordinates": [ -85.743108187035887, 38.243845127123848 ] } },
{ "type": "Feature", "properties": { "Status": "M", "Score": 100, "Match_type": "A", "Side": "R", "Match_addr": "6300 TERRY RD", "ARC_Street": "6300 Terry Road", "Street": "6300 Terry Road" }, "geometry": { "type": "Point", "coordinates": [ -85.867066648885043, 38.160047681054948 ] } },
{ "type": "Feature", "properties": { "Status": "M", "Score": 100, "Match_type": "A", "Side": "L", "Match_addr": "6300 W PAGES LN", "ARC_Street": "6300 West Pages Lane", "Street": "6300 West Pages Lane" }, "geometry": { "type": "Point", "coordinates": [ -85.872206468581908, 38.130905138635342 ] } },
{ "type": "Feature", "properties": { "Status": "M", "Score": 100, "Match_type": "A", "Side": "R", "Match_addr": "6301 LOWER HUNTERS TRCE", "ARC_Street": "6301 Lower Hunters Trace", "Street": "6301 Lower Hunters Trace" }, "geometry": { "type": "Point", "coordinates": [ -85.870386248208206, 38.167139833144233 ] } },
{ "type": "Feature", "properties": { "Status": "M", "Score": 100, "Match_type": "A", "Side": "L", "Match_addr": "631 S 28TH ST", "ARC_Street": "631 South 28th Street", "Street": "631 South 28th Street" }, "geometry": { "type": "Point", "coordinates": [ -85.797771900767145, 38.252000725934693 ] } },
{ "type": "Feature", "properties": { "Status": "M", "Score": 100, "Match_type": "A", "Side": "L", "Match_addr": "6401 OUTER LOOP", "ARC_Street": "6401 Outer Loop", "Street": "6401 Outer Loop" }, "geometry": { "type": "Point", "coordinates": [ -85.641755217649461, 38.137993750825217 ] } },
{ "type": "Feature", "properties": { "Status": "U", "Score": 0, "Match_type": "A", "Side": null, "Match_addr": null, "ARC_Street": "6405 Gellhaus Lane", "Street": "6405 Gellhaus Lane" }, "geometry": { "type": "Point", "coordinates": [ -1.7976931348623157e+308, -1.7976931348623157e+308 ] } },
{ "type": "Feature", "properties": { "Status": "U", "Score": 0, "Match_type": "A", "Side": null, "Match_addr": null, "ARC_Street": "6500 Six Mile Lane", "Street": "6500 Six Mile Lane" }, "geometry": { "type": "Point", "coordinates": [ -1.7976931348623157e+308, -1.7976931348623157e+308 ] } },
{ "type": "Feature", "properties": { "Status": "M", "Score": 100, "Match_type": "A", "Side": "R", "Match_addr": "6900 FEGENBUSH LN", "ARC_Street": "6900 Fegenbush Lane", "Street": "6900 Fegenbush Lane" }, "geometry": { "type": "Point", "coordinates": [ -85.628463059402236, 38.149185877524587 ] } },
{ "type": "Feature", "properties": { "Status": "U", "Score": 0, "Match_type": "A", "Side": null, "Match_addr": null, "ARC_Street": "700 S. New English Station Rd.", "Street": "700 S. New English Station Rd." }, "geometry": { "type": "Point", "coordinates": [ -1.7976931348623157e+308, -1.7976931348623157e+308 ] } },
{ "type": "Feature", "properties": { "Status": "M", "Score": 100, "Match_type": "A", "Side": "L", "Match_addr": "7149 SOUTHSIDE DR", "ARC_Street": "7149 Southside Drive", "Street": "7149 Southside Drive" }, "geometry": { "type": "Point", "coordinates": [ -85.7665338310116, 38.151167845100929 ] } },
{ "type": "Feature", "properties": { "Status": "M", "Score": 100, "Match_type": "A", "Side": "R", "Match_addr": "7200 PEPPERMILL LN", "ARC_Street": "7200 Peppermill Lane", "Street": "7200 Peppermill Lane" }, "geometry": { "type": "Point", "coordinates": [ -85.62731284341595, 38.142926041908879 ] } },
{ "type": "Feature", "properties": { "Status": "M", "Score": 100, "Match_type": "A", "Side": "R", "Match_addr": "7201 JOHNSONTOWN RD", "ARC_Street": "7201 Johnsontown Road", "Street": "7201 Johnsontown Road" }, "geometry": { "type": "Point", "coordinates": [ -85.893425722123368, 38.116420092803594 ] } },
{ "type": "Feature", "properties": { "Status": "M", "Score": 100, "Match_type": "A", "Side": "R", "Match_addr": "726 S PRESTON ST", "ARC_Street": "726 South Preston Street", "Street": "726 South Preston Street" }, "geometry": { "type": "Point", "coordinates": [ -85.74775938026238, 38.244409453424907 ] } },
{ "type": "Feature", "properties": { "Status": "M", "Score": 100, "Match_type": "A", "Side": "R", "Match_addr": "7406 FEGENBUSH LN", "ARC_Street": "7406 Fegenbush Lane", "Street": "7406 Fegenbush Lane" }, "geometry": { "type": "Point", "coordinates": [ -85.623781413287361, 38.142971110251153 ] } },
{ "type": "Feature", "properties": { "Status": "M", "Score": 100, "Match_type": "A", "Side": "L", "Match_addr": "7419 SAINT ANDREWS CHURCH RD", "ARC_Street": "7419 St. Andrews Church Road", "Street": "7419 St. Andrews Church Road" }, "geometry": { "type": "Point", "coordinates": [ -85.805974568392799, 38.153462555089561 ] } },
{ "type": "Feature", "properties": { "Status": "M", "Score": 100, "Match_type": "A", "Side": "L", "Match_addr": "7601 BARDSTOWN RD", "ARC_Street": "7601 Bardstown Road", "Street": "7601 Bardstown Road" }, "geometry": { "type": "Point", "coordinates": [ -85.581391717589781, 38.137985521709481 ] } },
{ "type": "Feature", "properties": { "Status": "U", "Score": 0, "Match_type": "A", "Side": null, "Match_addr": null, "ARC_Street": "7601 St Andrews Church Road", "Street": "7601 St Andrews Church Road" }, "geometry": { "type": "Point", "coordinates": [ -1.7976931348623157e+308, -1.7976931348623157e+308 ] } },
{ "type": "Feature", "properties": { "Status": "M", "Score": 100, "Match_type": "A", "Side": "R", "Match_addr": "7700 USHY 42", "ARC_Street": "7700 U.S. Highway 42", "Street": "7700 U.S. Highway 42" }, "geometry": { "type": "Point", "coordinates": [ -85.622689306006578, 38.320940130420922 ] } },
{ "type": "Feature", "properties": { "Status": "M", "Score": 100, "Match_type": "A", "Side": "L", "Match_addr": "7817 ALYSSUM DR", "ARC_Street": "7817 Alyssum Drive", "Street": "7817 Alyssum Drive" }, "geometry": { "type": "Point", "coordinates": [ -85.853415932452776, 38.139336296343686 ] } },
{ "type": "Feature", "properties": { "Status": "M", "Score": 100, "Match_type": "A", "Side": "L", "Match_addr": "7903 SHAW CT", "ARC_Street": "7903 Shaw Court", "Street": "7903 Shaw Court" }, "geometry": { "type": "Point", "coordinates": [ -85.603778946391117, 38.134464784542274 ] } },
{ "type": "Feature", "properties": { "Status": "M", "Score": 100, "Match_type": "A", "Side": "L", "Match_addr": "800 W CHESTNUT ST", "ARC_Street": "800 West Chestnut Street", "Street": "800 West Chestnut Street" }, "geometry": { "type": "Point", "coordinates": [ -85.764549315037414, 38.249625599365345 ] } },
{ "type": "Feature", "properties": { "Status": "M", "Score": 100, "Match_type": "A", "Side": "R", "Match_addr": "8008 SAINT ANDREWS CHURCH RD", "ARC_Street": "8008 St. Andrews Church Road", "Street": "8008 St. Andrews Church Road" }, "geometry": { "type": "Point", "coordinates": [ -85.827627434334943, 38.147998436972273 ] } },
{ "type": "Feature", "properties": { "Status": "M", "Score": 100, "Match_type": "A", "Side": "L", "Match_addr": "8101 BLUE LICK RD", "ARC_Street": "8101 Blue Lick Road", "Street": "8101 Blue Lick Road" }, "geometry": { "type": "Point", "coordinates": [ -85.685111025894287, 38.13319551346558 ] } },
{ "type": "Feature", "properties": { "Status": "M", "Score": 100, "Match_type": "A", "Side": "L", "Match_addr": "8101 BROWNSBORO RD", "ARC_Street": "8101 Brownsboro Road", "Street": "8101 Brownsboro Road" }, "geometry": { "type": "Point", "coordinates": [ -85.59973616684249, 38.297014176602715 ] } },
{ "type": "Feature", "properties": { "Status": "M", "Score": 100, "Match_type": "A", "Side": "L", "Match_addr": "817 S 2ND ST", "ARC_Street": "817 South Second Street", "Street": "817 South Second Street" }, "geometry": { "type": "Point", "coordinates": [ -85.755479095058661, 38.242975665159918 ] } },
{ "type": "Feature", "properties": { "Status": "M", "Score": 100, "Match_type": "A", "Side": "R", "Match_addr": "844 DEARBORN AVE", "ARC_Street": "844 Dearborn Avenue", "Street": "844 Dearborn Avenue" }, "geometry": { "type": "Point", "coordinates": [ -85.814043315797335, 38.24728947772536 ] } },
{ "type": "Feature", "properties": { "Status": "U", "Score": 0, "Match_type": "A", "Side": null, "Match_addr": null, "ARC_Street": "8510 Minors Lane", "Street": "8510 Minors Lane" }, "geometry": { "type": "Point", "coordinates": [ -1.7976931348623157e+308, -1.7976931348623157e+308 ] } },
{ "type": "Feature", "properties": { "Status": "M", "Score": 100, "Match_type": "A", "Side": "R", "Match_addr": "8800 WESTPORT RD", "ARC_Street": "8800 Westport Road", "Street": "8800 Westport Road" }, "geometry": { "type": "Point", "coordinates": [ -85.588975007071838, 38.280871929838952 ] } },
{ "type": "Feature", "properties": { "Status": "M", "Score": 100, "Match_type": "A", "Side": "L", "Match_addr": "8815 FERNDALE RD", "ARC_Street": "8815 Ferndale Road", "Street": "8815 Ferndale Road" }, "geometry": { "type": "Point", "coordinates": [ -85.596050760679816, 38.155399820887283 ] } },
{ "type": "Feature", "properties": { "Status": "M", "Score": 100, "Match_type": "A", "Side": "R", "Match_addr": "8903 DUXBURY RD", "ARC_Street": "8903 Duxbury Road", "Street": "8903 Duxbury Road" }, "geometry": { "type": "Point", "coordinates": [ -85.586860882970086, 38.283071393961393 ] } },
{ "type": "Feature", "properties": { "Status": "M", "Score": 100, "Match_type": "A", "Side": "L", "Match_addr": "917 S 28TH ST", "ARC_Street": "917 South 28th Street", "Street": "917 South 28th Street" }, "geometry": { "type": "Point", "coordinates": [ -85.799097329776203, 38.244513815930929 ] } },
{ "type": "Feature", "properties": { "Status": "M", "Score": 100, "Match_type": "A", "Side": "R", "Match_addr": "9310 PRESTON HWY", "ARC_Street": "9310 Preston Highway", "Street": "9310 Preston Highway" }, "geometry": { "type": "Point", "coordinates": [ -85.676677418839233, 38.115840062557197 ] } },
{ "type": "Feature", "properties": { "Status": "M", "Score": 100, "Match_type": "A", "Side": "L", "Match_addr": "9505 USHY 42", "ARC_Street": "9505 U.S. Highway 42", "Street": "9505 U.S. Highway 42" }, "geometry": { "type": "Point", "coordinates": [ -85.617436521414561, 38.34265762951884 ] } },
{ "type": "Feature", "properties": { "Status": "M", "Score": 100, "Match_type": "A", "Side": "R", "Match_addr": "9610 SUE HELEN DR", "ARC_Street": "9610 Sue Helen Drive", "Street": "9610 Sue Helen Drive" }, "geometry": { "type": "Point", "coordinates": [ -85.5810082178117, 38.194806810471675 ] } },
{ "type": "Feature", "properties": { "Status": "M", "Score": 100, "Match_type": "A", "Side": "R", "Match_addr": "9620 WESTPORT RD", "ARC_Street": "9620 Westport Road", "Street": "9620 Westport Road" }, "geometry": { "type": "Point", "coordinates": [ -85.573340928441098, 38.287155231110546 ] } },
{ "type": "Feature", "properties": { "Status": "M", "Score": 100, "Match_type": "A", "Side": "L", "Match_addr": "9801 BLUE LICK RD", "ARC_Street": "9801 Blue Lick Road", "Street": "9801 Blue Lick Road" }, "geometry": { "type": "Point", "coordinates": [ -85.692452829356057, 38.106086285567187 ] } },
{ "type": "Feature", "properties": { "Status": "M", "Score": 100, "Match_type": "A", "Side": "R", "Match_addr": "9810 TAYLORSVILLE RD", "ARC_Street": "9810 Taylorsville Road", "Street": "9810 Taylorsville Road" }, "geometry": { "type": "Point", "coordinates": [ -85.574804588897052, 38.202285300925439 ] } }
]
}
